{
  "Corporate Information Security": {
    "longitude": 13.1676404,
    "latitude": 55.6998089,
    "offices": [
      {
        "name": "AB Tetra Pak",
        "address": "Ruben Rausings gata\nSE-221 86\nLund",
        "phoneNumber": "+46 46 36 10 00",
        "fax": "",
        "longitude": 13.190959829407474,
        "latitude": 55.68719225009939,
        "localSiteUrl": ""
      }
    ]
  },
  "Corporate Offices": {
    "longitude": 13.1676404,
    "latitude": 55.6998089,
    "offices": [
      {
        "name": "Tetra Pak International SA",
        "address": "Tetra Pak International SA Headquarters 70 Avenue Général-Guisan Case Postale 446 CH-1009 PULLY/LAUSANNE SWITZERLAND",
        "phoneNumber": "+41 21 729 2111",
        "fax": "+41 21 729 2244",
        "longitude": 6.6440410000000005,
        "latitude": 46.507064,
        "localSiteUrl": ""
      },
      {
        "name": "Tetra Pak International",
        "address": "Ruben Rausings gata SE-221 86 LUND SWEDEN",
        "phoneNumber": "+46 46 36 10 00",
        "fax": "+46 46 13 43 86",
        "longitude": 13.191802671600513,
        "latitude": 55.690252615164084,
        "localSiteUrl": ""
      }
    ]
  },
  "Corporate R&D": {
    "longitude": 13.1676404,
    "latitude": 55.6998089,
    "offices": [
      {
        "name": "Development & Engineering",
        "address": "Ruben Rausings gata\n221 86 Lund",
        "phoneNumber": "+ 46 46 361000",
        "fax": "",
        "longitude": 13.191507,
        "latitude": 55.687413,
        "localSiteUrl": ""
      }
    ]
  },
  "Albania": {
    "longitude": 20.168331,
    "latitude": 41.153332,
    "offices": [
      {
        "name": "Tetra Pak d.o.o",
        "address": "Note: Managed by Croatia office --- \nTETRA PAK d.o.o., Bani 110, 10010 Zagreb",
        "phoneNumber": "+385 1 661 0000",
        "fax": "+385 1 661 0050",
        "longitude": 15.990230483928658,
        "latitude": 45.75218783787174,
        "localSiteUrl": ""
      }
    ]
  },
  "Algeria": {
    "longitude": 28.033886,
    "latitude": 1.659626,
    "offices": [
      {
        "name": "Tetra Pak Algeria",
        "address": "13, rue Ali Ouazane 16035, \nHydra, \nAlger.",
        "phoneNumber": "+213 23 48 41 59 / +213 23 48 41 61 /+213 23 48 41 63 /+213 23 48 41 67 / +213 23 48 41 69",
        "fax": "+213 23 48 41 68",
        "longitude": 3.0366861999999992,
        "latitude": 36.7465946,
        "localSiteUrl": ""
      }
    ]
  },
  "Argentina": {
    "longitude": -63.616672,
    "latitude": -38.416097,
    "offices": [
      {
        "name": "Tetra Pak  S.A",
        "address": "Ruta Panamericana 2650, Oficina D-08H\nPalmares Open Mall CP M5501NVC\nGodoy Cruz, Mendoza",
        "phoneNumber": "+54 261 420900",
        "fax": "+54 261 304113",
        "longitude": -68.86033946019076,
        "latitude": -32.95707366490861,
        "localSiteUrl": "https://www.tetrapak.com/ar"
      },
      {
        "name": "Tetra Pak S.R.L",
        "address": "Visit Address: \nRuta 5 Km 5,5, Parque Industrial F5300WAC La Rioja",
        "phoneNumber": "+54 0380 44 57 100",
        "fax": "+54 0380 44 57 100",
        "longitude": -66.80938700000002,
        "latitude": -29.395744000000008,
        "localSiteUrl": "https://www.tetrapak.com/ar"
      },
      {
        "name": "Tetra Pak S.R.L",
        "address": "Uruguay 2887, \nB1644 Victoria, \nBuenos Aires, Argentina",
        "phoneNumber": "+54 11 4851-0400/ 4725-7600",
        "fax": "Fax. +54 11 4725-7679/ 4851-0496",
        "longitude": -58.55483388477396,
        "latitude": -34.46466278049575,
        "localSiteUrl": "https://www.tetrapak.com/ar"
      },
      {
        "name": "Tetra Pak S.A",
        "address": "Ruta 5 - Km 5,5 - Parque Industrial La Rioja.\nLa Rioja.\nCP 5300",
        "phoneNumber": "+54 380 5437200",
        "fax": "",
        "longitude": -66.81087489711835,
        "latitude": -29.397275877407335,
        "localSiteUrl": "https://www.tetrapak.com/ar"
      }
    ]
  },
  "Australia": {
    "longitude": 133.775136,
    "latitude": -25.274398,
    "offices": [
      {
        "name": "Tetra Pak Marketing Pty Ltd",
        "address": "Level 2, 5 Burwood Road,\nHawthorn VIC 3122 Australia\n",
        "phoneNumber": "+61 3 8561 3800",
        "fax": "+61 3 9818 4250",
        "longitude": 145.0219618,
        "latitude": -37.8213467,
        "localSiteUrl": "https://www.tetrapak.com/au"
      }
    ]
  },
  "Austria": {
    "longitude": 14.550072,
    "latitude": 47.516231,
    "offices": [
      {
        "name": "Tetra Pak GmbH",
        "address": "Leopold-Böhm-Straße 12, 1030 Wien",
        "phoneNumber": "+43 1 897 2200",
        "fax": "+43 1 8972 2100",
        "longitude": 16.411204299999998,
        "latitude": 48.1851667,
        "localSiteUrl": "https://www.tetrapak.com/de"
      }
    ]
  },
  "Bangladesh": {
    "longitude": 90.356331,
    "latitude": 23.684994,
    "offices": [
      {
        "name": "Tetra Pak Asian Emerging Markets",
        "address": "Plot No -158. ( 5th floor) Block No - E Banani Kemal Ataturk Avenue Dhaka 1213\nBangladesh",
        "phoneNumber": "+880 (02) 988 8322, 989 3238",
        "fax": "+880 (02) 881 9752",
        "longitude": 90.4059321,
        "latitude": 23.793506499999996,
        "localSiteUrl": ""
      }
    ]
  },
  "Belarus": {
    "longitude": 27.953389,
    "latitude": 53.709807,
    "offices": [
      {
        "name": "Tetra Pak A/O",
        "address": "40, Nemiga street, office 33\n220004 Republic of Belarus, Minsk",
        "phoneNumber": "+ 375 17 211-0039",
        "fax": "+ 375 17 200-5157",
        "longitude": 27.547743915365448,
        "latitude": 53.90394524049981,
        "localSiteUrl": "https://www.tetrapak.com/su"
      }
    ]
  },
  "Belgium": {
    "longitude": 4.469936,
    "latitude": 50.503887,
    "offices": [
      {
        "name": "Tetra Pak International",
        "address": "Rue de la Loi, 81A,\nB-1040 Bruxelles",
        "phoneNumber": "+32 2 230 01 28",
        "fax": "",
        "longitude": 4.3759277999999995,
        "latitude": 50.84388320000001,
        "localSiteUrl": "https://www.tetrapak.com/be"
      },
      {
        "name": "Tetra Pak Belgium NV/SA",
        "address": "A. Gossetlaan, 28A b1 B - 1702 Groot-Bijgaarden",
        "phoneNumber": "+32 2 467 6811",
        "fax": "+32 2 466 2665",
        "longitude": 4.2790330999999995,
        "latitude": 50.8728827,
        "localSiteUrl": "https://www.tetrapak.com/be"
      }
    ]
  },
  "Benin": {
    "longitude": 2.315834,
    "latitude": 9.30769,
    "offices": [
      {
        "name": "Tetra Pak West Africa Ltd",
        "address": "8 Secretariat Road Coker Village\nAlausa Ikeja, Lagos",
        "phoneNumber": "+234 1 4483309",
        "fax": "+234 1 7912931",
        "longitude": 3.356083850949644,
        "latitude": 6.618666423861015,
        "localSiteUrl": "https://www.tetrapak.com/ng"
      }
    ]
  },
  "Bolivia": {
    "longitude": -63.588653,
    "latitude": -16.290154,
    "offices": [
      {
        "name": "Tetra Pak Andina",
        "address": "Equipetrol Norte 4° Anillo.  Nro 4200. Centro Empresarial Torre Duo, Of. 17 B Santa Cruz de la Sierra",
        "phoneNumber": "+591 3 402 1580",
        "fax": "",
        "longitude": -63.20034048437604,
        "latitude": -17.755408878959976,
        "localSiteUrl": ""
      }
    ]
  },
  "Bosnia and Herzegovina": {
    "longitude": 17.679076,
    "latitude": 43.915886,
    "offices": [
      {
        "name": "Tetra Pak Production d.o.o.",
        "address": "Milutina Milankovica 11b,\n11070 Belgrade, Serbia",
        "phoneNumber": "+381 11 2017 333",
        "fax": "+381 11 2017 380",
        "longitude": 20.404919879468352,
        "latitude": 44.81364588473882,
        "localSiteUrl": ""
      }
    ]
  },
  "Brazil": {
    "longitude": -51.92528,
    "latitude": -14.235004,
    "offices": [
      {
        "name": "Fábrica Ponta Grossa",
        "address": "Rodovia BR 376, Km 499,5 \nDistrito Industrial - Caixa Postal 2345\n84043-450\nPonta Grossa – PR\nBrazil",
        "phoneNumber": "+55 (42) 3219 4000",
        "fax": "",
        "longitude": 13.1676404,
        "latitude": 55.6998089,
        "localSiteUrl": "https://www.tetrapak.com/br"
      },
      {
        "name": "Escritório Villa-Lobos",
        "address": "Tetra Pak Ltda\nAvenida Doutora Ruth Cardoso, 4777 – 10º andar\nEd. Villa-Lobos – Pinheiros\n05477-903\nSão Paulo – SP\nBrazil",
        "phoneNumber": "+55 (11) 5501 3200",
        "fax": "",
        "longitude": 13.1676404,
        "latitude": 55.6998089,
        "localSiteUrl": "https://www.tetrapak.com/br"
      },
      {
        "name": " Escritório Regional de Goiânia",
        "address": "Rua Dez, 250, sala 1703 – Ed. Trade Center – Setor Oeste\n74120-260 \nGoiânia – GO\nBrazil",
        "phoneNumber": "+55 (62) 4005 4700",
        "fax": "",
        "longitude": 13.1676404,
        "latitude": 55.6998089,
        "localSiteUrl": "https://www.tetrapak.com/br"
      },
      {
        "name": "Escritório Vila Mariana",
        "address": "Avenida Fagundes Filho, 134, 11° andar\nVila Monte Alegre \n04304-000 \nSão Paulo – SP\nBrazil",
        "phoneNumber": "+55 (11) 2821-7900",
        "fax": "",
        "longitude": 13.1676404,
        "latitude": 55.6998089,
        "localSiteUrl": "https://www.tetrapak.com/br"
      },
      {
        "name": "Escritório Regional de Belo Horizonte",
        "address": "Rua Cristóvão Colombo, 485 – 4º Andar\n30140-140\nBelo Horizonte – MG\nBrazil",
        "phoneNumber": "+55 (31) 2101 4600",
        "fax": "",
        "longitude": 13.1676404,
        "latitude": 55.6998089,
        "localSiteUrl": "https://www.tetrapak.com/br"
      },
      {
        "name": "Fábrica Monte Mor",
        "address": "Rodovia Campinas/Capivari, Km 23,75 \nBairro Chapéu de Sol - Caixa Postal 51 \n13190-000 Monte Mor – SP \nBrazil",
        "phoneNumber": "+55 (19) 3879 8000",
        "fax": "",
        "longitude": -47.30300098477957,
        "latitude": -22.95386984532403,
        "localSiteUrl": "https://www.tetrapak.com/br"
      },
      {
        "name": "Escritório Regional de Porto Alegre",
        "address": "Rua Mostardeiro, 322 - Conj. 802\nCentro Empresarial Mostardeiro – Independência\n90430-000\nPorto Alegre – RS\nBrazil",
        "phoneNumber": "+55 (51) 2125-4800",
        "fax": "",
        "longitude": -51.20616558488521,
        "latitude": -30.028666581888025,
        "localSiteUrl": "https://www.tetrapak.com/br"
      },
      {
        "name": "Escritório Regional de Recife",
        "address": "Av. Eng. Antônio de Góes, 60, Sala 401\nPina, Empresarial JCPM\n51010-000\nRecife – PE\nBrazil",
        "phoneNumber": "+55 (81) 2125 4900",
        "fax": "",
        "longitude": 13.1676404,
        "latitude": 55.6998089,
        "localSiteUrl": "https://www.tetrapak.com/br"
      }
    ]
  },
  "Bulgaria": {
    "longitude": 25.48583,
    "latitude": 42.733883,
    "offices": [
      {
        "name": "Tetra Pak Bulgaria",
        "address": "Tetra Pak Romania SRL\nBaneasa Airport Tower, etaj 3 Str. Ion Ionescu de la Brad 1A, Sector 1 013811 Bucuresti",
        "phoneNumber": "+40 (0)21 269 15 90/91/92",
        "fax": "+40 (0)21 269 15 93",
        "longitude": 26.077195289345823,
        "latitude": 44.495486692933014,
        "localSiteUrl": ""
      }
    ]
  },
  "Burkina Faso": {
    "longitude": -3.79963687,
    "latitude": 12.2435138,
    "offices": [
      {
        "name": "Tetra Pak West Africa Ltd",
        "address": "8 Secretariat Road Coker Village\nAlausa Ikeja, Lagos",
        "phoneNumber": "+234 1 4483309",
        "fax": "+234 1 7912931",
        "longitude": 3.356083850949644,
        "latitude": 6.618666423861015,
        "localSiteUrl": "https://www.tetrapak.com/ng"
      }
    ]
  },
  "Cameroon": {
    "longitude": 12.354722,
    "latitude": 7.369722,
    "offices": [
      {
        "name": "Tetra Pak West Africa Ltd",
        "address": "8 Secretariat Road Coker Village\nAlausa Ikeja, Lagos",
        "phoneNumber": "+234 1 4483309",
        "fax": "+234 1 7912931",
        "longitude": 3.356083850949644,
        "latitude": 6.618666423861015,
        "localSiteUrl": "https://www.tetrapak.com/ng"
      }
    ]
  },
  "Canada": {
    "longitude": -106.346771,
    "latitude": 56.130366,
    "offices": [
      {
        "name": "Tetra Pak Canada Inc.",
        "address": "20 De Boers Drive, Suite 420\nToronto, Ontario, M3J 0H1\nCanada",
        "phoneNumber": "+1 647-775-1837, Toll Free: +1 800 263-2260",
        "fax": "1 647-775-1838",
        "longitude": -79.46633378971316,
        "latitude": 43.752110577359375,
        "localSiteUrl": "https://www.tetrapak.com/ca"
      },
      {
        "name": "Tetra Pak Inc.",
        "address": "Note: The office is situated in the US\n600 Bunker Court\nVernon Hills, IL 60661",
        "phoneNumber": "+1 847 955 6000",
        "fax": "+1 847 955 6500",
        "longitude": -87.95177648433207,
        "latitude": 42.23481695099372,
        "localSiteUrl": "https://www.tetrapak.com/ca"
      }
    ]
  },
  "Central African Republic": {
    "longitude": 20.939444,
    "latitude": 6.611111,
    "offices": [
      {
        "name": "Tetra Pak West Africa Ltd",
        "address": "8 Secretariat Road Coker Village\nAlausa Ikeja, Lagos",
        "phoneNumber": "+234 1 4483309",
        "fax": "+234 1 7912931",
        "longitude": 3.356083850949644,
        "latitude": 6.618666423861015,
        "localSiteUrl": "https://www.tetrapak.com/ng"
      }
    ]
  },
  "Central America & Caribbean (EN)": {
    "longitude": -91.0369,
    "latitude": 30.55428,
    "offices": [
      {
        "name": "Tetra Pak, S.A. (Central America & Caribbean)",
        "address": "Edificio Plaza Globus, piso 7, Ave. Samuel Lewis y calle 55 Obarrio Panama, Republica de Panama",
        "phoneNumber": "(507) 208-5800",
        "fax": "(507) 264-2600",
        "longitude": -79.52170256241865,
        "latitude": 8.98710223023014,
        "localSiteUrl": "https://www.tetrapak.com/pa-sp"
      }
    ]
  },
  "Central America & Caribbean (ES)": {
    "longitude": -91.0369,
    "latitude": 30.55428,
    "offices": [
      {
        "name": "Tetra Pak, S.A. (Central America & Caribbean)",
        "address": "Edificio Plaza Globus, piso 7, Ave. Samuel Lewis y calle 55 Obarrio Panama, Republica de Panama",
        "phoneNumber": "(507) 208-5800",
        "fax": "(507) 264-2600",
        "longitude": -79.52170256241865,
        "latitude": 8.98710223023014,
        "localSiteUrl": "https://www.tetrapak.com/pa-sp"
      }
    ]
  },
  "Chad": {
    "longitude": 18.732207,
    "latitude": 15.454166,
    "offices": [
      {
        "name": "Tetra Pak West Africa Ltd",
        "address": "8 Secretariat Road Coker Village\nAlausa Ikeja, Lagos",
        "phoneNumber": "+234 1 4483309",
        "fax": "+234 1 7912931",
        "longitude": 3.356083850949644,
        "latitude": 6.618666423861015,
        "localSiteUrl": "https://www.tetrapak.com/ng"
      }
    ]
  },
  "Chile": {
    "longitude": -71.542969,
    "latitude": -35.675147,
    "offices": [
      {
        "name": "Tetra Pak de Chile Comercial Ltda.",
        "address": "Av. Apoquindo 5400, Piso 4,\nLas Condes, Santiago.",
        "phoneNumber": "+56 2 940 7000",
        "fax": "+56 2 940 7091",
        "longitude": -70.572408,
        "latitude": -33.41023,
        "localSiteUrl": "https://www.tetrapak.com/cl"
      }
    ]
  },
  "China": {
    "longitude": 104.195397,
    "latitude": 35.86166,
    "offices": [
      {
        "name": "Tetra Pak (Beijing) Co., Ltd.",
        "address": "15 Donghuan South Road, Economic Technical Development Area, Beijing 100176",
        "phoneNumber": "+86 10 6788 7117",
        "fax": "+86 10 6780 2166",
        "longitude": 116.53946815159301,
        "latitude": 39.779154201989186,
        "localSiteUrl": "https://www.tetrapak.com/cn"
      },
      {
        "name": "Tetra Pak China Ltd. (Xiamen Office)",
        "address": "Room 806-807, Fortune Center,\nNo. 100 Lujiang Road, 361001 Xiamen",
        "phoneNumber": "+86 592 518 5662",
        "fax": "+86 592 518 5659",
        "longitude": 118.07233388754304,
        "latitude": 24.458314381647,
        "localSiteUrl": "https://www.tetrapak.com/cn"
      },
      {
        "name": "Tetra Pak China Ltd. (Hong Kong)",
        "address": "Suite 2313-15, Cityplaza One 1111 King Road, Taikoo Shing Hong Kong",
        "phoneNumber": "+852 2861 1933",
        "fax": "+852 2527 9854",
        "longitude": 114.21513597773229,
        "latitude": 22.285375745779408,
        "localSiteUrl": "https://www.tetrapak.com/cn"
      },
      {
        "name": "Tetra Pak China Ltd. (Shanghai)",
        "address": "17/F, Building 5, Crystal Plaza 36 Pingjiaqiao Rd, Pudong Shanghai 200126, P.R.China",
        "phoneNumber": "+86 21 3217 4688",
        "fax": "+86 21 3217 4680",
        "longitude": 121.47754377235526,
        "latitude": 31.15007887463058,
        "localSiteUrl": "https://www.tetrapak.com/cn"
      },
      {
        "name": "Tetra Pak (Beijing) Co, Ltd, Harbin Branch Office",
        "address": "Suite 1901, Churin International Shopping Cetre,\nNo. 320 Dongdazhi Street,\nNan Gang District, 150000 Harbin",
        "phoneNumber": "+86 451 5360 5941 ",
        "fax": " +86 451 5360 5942",
        "longitude": 126.64478015478197,
        "latitude": 45.75842947468825,
        "localSiteUrl": "https://www.tetrapak.com/cn"
      },
      {
        "name": "Tetra Pak (Kunshan) Co. Ltd.",
        "address": "No.208 South Shun Fan Road Kunshan, 215301 Jiangsu Province",
        "phoneNumber": "+86 512 5771 7725",
        "fax": "+86 512 5771 7729",
        "longitude": 120.99653106282685,
        "latitude": 31.371287518421056,
        "localSiteUrl": "https://www.tetrapak.com/cn"
      },
      {
        "name": "Tetra Pak Food Machinery (Shanghai) Co., Ltd",
        "address": "201 Kang Qiao Dong Road\nPudong 201315 Shanghai",
        "phoneNumber": "+86 21 3828 9588",
        "fax": "+86 21 3812 8088",
        "longitude": 121.59893195147015,
        "latitude": 31.152079272259297,
        "localSiteUrl": "https://www.tetrapak.com/cn"
      },
      {
        "name": "Tetra Pak China Ltd. (Foshan)",
        "address": "Unit EF, 19/F, Two AIA Financial Center, No.1, East Denghu Road, Guicheng, Nanhai District, Foshan, Guangdong Province, 528200, P.R.China.",
        "phoneNumber": "+86 (757) 8383 1626",
        "fax": "",
        "longitude": 113.14557161533642,
        "latitude": 23.056467970845336,
        "localSiteUrl": "https://www.tetrapak.com/cn"
      },
      {
        "name": "Tetra Pak (Hohhot) Co., Ltd.",
        "address": "No.1 Tetra Pak Road, Ruyi New Area, Hohhot Economic & Technical Development Zone, Shaerqin Village, Tumotezuo Qi, Hohhot 010111, Inner Mongolia",
        "phoneNumber": "+86 471 4616655",
        "fax": "+ 86 471 8086248",
        "longitude": 111.06124869524602,
        "latitude": 40.717990249175294,
        "localSiteUrl": "https://www.tetrapak.com/cn"
      },
      {
        "name": "Tetra Pak China Ltd. (Xian Office)",
        "address": "Room 802, Block D, Chang’an Metropolis Centre,\nNo.88 NanGuan Street,\nXi’an, 710068, P.R. China",
        "phoneNumber": "+86-29-87607955",
        "fax": "+86-29-87607933  ",
        "longitude": 108.94596879805339,
        "latitude": 34.25374204193126,
        "localSiteUrl": "https://www.tetrapak.com/cn"
      },
      {
        "name": "Tetra Pak China Ltd. (Chengdu Office)",
        "address": "Rm 1704, 17/F Yanlord Landmark\nNo 1, 2nd Section People Road (South)\nChengdu 610016",
        "phoneNumber": "电话 +86 28 6132 4018 ",
        "fax": "传真 +86 28 6132 4088",
        "longitude": 104.06388383977549,
        "latitude": 30.652152275398286,
        "localSiteUrl": "https://www.tetrapak.com/cn"
      }
    ]
  },
  "Colombia": {
    "longitude": -74.297333,
    "latitude": 4.570868,
    "offices": [
      {
        "name": "Tetra Pak Ltda.",
        "address": "Carrera 11A N 94-45 Piso 6, Edificio OXO Center, Bogotá, Cra. 11a #94, Bogotá, Colombia",
        "phoneNumber": "+57 1 628 3630",
        "fax": "+57 1 628 3660",
        "longitude": -74.04744281188938,
        "latitude": 4.678081836423781,
        "localSiteUrl": "https://www.tetrapak.com/co"
      }
    ]
  },
  "Congo": {
    "longitude": 15.827659,
    "latitude": -0.228021,
    "offices": [
      {
        "name": "Tetra Pak West Africa Ltd",
        "address": "8 Secretariat Road Coker Village\nAlausa Ikeja, Lagos",
        "phoneNumber": "+234 1 4483309",
        "fax": "+234 1 7912931",
        "longitude": 3.356083850949644,
        "latitude": 6.618666423861015,
        "localSiteUrl": "https://www.tetrapak.com/ng"
      }
    ]
  },
  "Croatia": {
    "longitude": 15.2,
    "latitude": 45.1,
    "offices": [
      {
        "name": "Tetra Pak d.o.o.",
        "address": "TETRA PAK d.o.o., Bani 110, 10010 Zagreb",
        "phoneNumber": "+385 1 661 0000",
        "fax": "+385 1 661 0050",
        "longitude": 15.990230483928658,
        "latitude": 45.75218783787174,
        "localSiteUrl": "https://www.tetrapak.com/hr"
      }
    ]
  },
  "Cyprus": {
    "longitude": 33.429859,
    "latitude": 35.126413,
    "offices": [
      {
        "name": "Tetra Pak Hellas S.A.",
        "address": "Note: office located in Greece\nSorou 10, Maroussi, Athens",
        "phoneNumber": "+30 210 616 7500",
        "fax": "+30 210 619 9690",
        "longitude": 23.805462915702677,
        "latitude": 38.045454804312044,
        "localSiteUrl": "https://www.tetrapak.com/gr"
      }
    ]
  },
  "Czech Republic": {
    "longitude": 15.472962,
    "latitude": 49.817492,
    "offices": [
      {
        "name": "Tetra Pak Ceska Republika s.r.o",
        "address": "Nova Cesta 17 140 00 Praha 4  ",
        "phoneNumber": "+420 261 007 111",
        "fax": "+420 241 445 963",
        "longitude": 14.4361328,
        "latitude": 50.0391365,
        "localSiteUrl": "https://www.tetrapak.com/cz"
      }
    ]
  },
  "Democratic Republic Of Congo": {
    "longitude": 21.758664,
    "latitude": -4.038333,
    "offices": [
      {
        "name": "Tetra Pak West Africa Ltd",
        "address": "8 Secretariat Road Coker Village\nAlausa Ikeja, Lagos",
        "phoneNumber": "+234 1 4483309",
        "fax": "+234 1 7912931",
        "longitude": 3.356083850949644,
        "latitude": 6.618666423861015,
        "localSiteUrl": "https://www.tetrapak.com/ng"
      }
    ]
  },
  "Denmark": {
    "longitude": 9.501785,
    "latitude": 56.26392,
    "offices": [
      {
        "name": "Tetra Pak Cheese and Powder Systems A/S",
        "address": "Søren Nymarks Vej 13\nDK – 8270 Højbjerg\n-----------------------------\nNote: Tetra Pak Cheese and Powder Systems A/S Includes the former Filtration Systems A/S office",
        "phoneNumber": "+45 89 39 39 39",
        "fax": "+45 86 20 95 33",
        "longitude": 10.152141951703916,
        "latitude": 56.10754697194796,
        "localSiteUrl": ""
      },
      {
        "name": "Office",
        "address": "Bergsøesvej 17\nDK-8600 Silkeborg\n----------------------\nService hotline: +45 7070 1661",
        "phoneNumber": "+45 8720 0840",
        "fax": "",
        "longitude": 9.575282315939905,
        "latitude": 56.204805980676724,
        "localSiteUrl": "https://www.tetrapak.comhttps://www.tetrapak.com/membrane-filtration"
      },
      {
        "name": "Headquarters",
        "address": "Tetra Pak Hoyer\nTetra Pak Processing Systems A/S\n\nSøren Nymarks Vej 13\nDK-8270 Højbjerg",
        "phoneNumber": "+45 89 39 39 39",
        "fax": "+45 89 39 39 40",
        "longitude": 10.152141951703916,
        "latitude": 56.10754697194796,
        "localSiteUrl": "https://www.tetrapak.com/processing"
      },
      {
        "name": "Office",
        "address": "Danice Services\nTetra Pak Processing Systems A/S\n\nSøren Nymarks Vej 13\nDK-8270 Højbjerg",
        "phoneNumber": "+45 89 39 39 89",
        "fax": "+45 86 29 33 30",
        "longitude": 10.151585603621797,
        "latitude": 56.10668804316372,
        "localSiteUrl": ""
      },
      {
        "name": "Tetra Pak Inventing A/S",
        "address": "Mads Clausens vej 17\nDK-9800  Hjørring",
        "phoneNumber": "+45 98 91 00 00",
        "fax": "+45 98 91 15 20",
        "longitude": 10.0079049,
        "latitude": 57.440492,
        "localSiteUrl": ""
      },
      {
        "name": "Tetra Pak Danmark A/S",
        "address": "Søren Nymarks Vej 13DK-8270, Højbjerg",
        "phoneNumber": "+45 89 39 39 39",
        "fax": "+45 45 87 94 60 ",
        "longitude": 10.151585603621797,
        "latitude": 56.10668804316372,
        "localSiteUrl": ""
      },
      {
        "name": "Offices",
        "address": "Tetra Pak Scanima A/S\nTetra Pak Processing Systems A/S\n\nGugvej 152B, Dk-9210\nAalborg SØ",
        "phoneNumber": "+45 96 33 10 00",
        "fax": "+45 96 33 10 12",
        "longitude": 9.9245,
        "latitude": 57.012496999999996,
        "localSiteUrl": ""
      }
    ]
  },
  "Ecuador": {
    "longitude": -78.183406,
    "latitude": -1.831239,
    "offices": [
      {
        "name": "Tetra Pak Cia. Ltda.",
        "address": "Calle Luxemburgo N34-359 y Av. Portugal – Edificio Cosmopolitan – Torre Empresarial Piso 7, Ecuador",
        "phoneNumber": "+593 2 398 1800",
        "fax": "",
        "longitude": 13.1676404,
        "latitude": 55.6998089,
        "localSiteUrl": "https://www.tetrapak.com/ec"
      }
    ]
  },
  "Egypt": {
    "longitude": 30.802498,
    "latitude": 26.820553,
    "offices": [
      {
        "name": "Tetra Pak Egypt Ltd",
        "address": "Block 72 City Center 3rd Floor,\nFrom Teseen St. Beside Banking Center",
        "phoneNumber": "+2 02 261 60180 ",
        "fax": "+2 02 261 60188  ",
        "longitude": 31.420407614806535,
        "latitude": 30.017623226794704,
        "localSiteUrl": ""
      }
    ]
  },
  "Equatorial Guinea": {
    "longitude": 10.267895,
    "latitude": 1.650801,
    "offices": [
      {
        "name": "Tetra Pak West Africa Ltd",
        "address": "8 Secretariat Road Coker Village\nAlausa Ikeja, Lagos",
        "phoneNumber": "+234 1 4483309",
        "fax": "+234 1 7912931",
        "longitude": 3.356083850949644,
        "latitude": 6.618666423861015,
        "localSiteUrl": "https://www.tetrapak.com/ng"
      }
    ]
  },
  "Estonia": {
    "longitude": 25.013607,
    "latitude": 58.595272,
    "offices": [
      {
        "name": "Tetra Pak Estonia",
        "address": "Mustamae tee 4 10621 Tallinn  ",
        "phoneNumber": "+372 65 65 354",
        "fax": "+372 65 65 355",
        "longitude": 24.701622599999997,
        "latitude": 59.4283624,
        "localSiteUrl": ""
      }
    ]
  },
  "Finland": {
    "longitude": 25.748151,
    "latitude": 61.92411,
    "offices": [
      {
        "name": "Tetra Pak Oy",
        "address": "Valimotie 21\n00380 Helsinki\nFinland",
        "phoneNumber": "+358 207 633600",
        "fax": "",
        "longitude": 24.87784251933001,
        "latitude": 60.21976556824209,
        "localSiteUrl": "https://www.tetrapak.com/fi"
      }
    ]
  },
  "France": {
    "longitude": 2.213749,
    "latitude": 46.227638,
    "offices": [
      {
        "name": "Papeteries de Dijon",
        "address": "Zone Industrielle B P 35 3\nRue de Romelet\n21601 Longvic\nFrance",
        "phoneNumber": "+33 3 80 73 71 71",
        "fax": "+33 3 80 31 87 90",
        "longitude": 5.039778299999998,
        "latitude": 47.288505199999996,
        "localSiteUrl": "https://www.tetrapak.com/fr"
      },
      {
        "name": "Packaging & Processing",
        "address": "Campus Equilibre\n56-58, avenue Jean Jaurès\nCS550034, 92707 Colombes\nFrance",
        "phoneNumber": "+33 1 56 47 50 00",
        "fax": "+33 1 56 47 51 50",
        "longitude": 2.257128014772109,
        "latitude": 48.934302903314126,
        "localSiteUrl": "https://www.tetrapak.com/fr"
      },
      {
        "name": "Tetra Pak Powder Handling",
        "address": "Tetra Pak Processing Equipment SAS\n12 rue du Bordage  49122, Le May sur Evre\n",
        "phoneNumber": "+ 33 (0)2 41 63 26 26",
        "fax": "+ 33 (0)2 41 63 12 15",
        "longitude": -0.8924686845618612,
        "latitude": 47.143837979156636,
        "localSiteUrl": "https://www.tetrapak.com/fr"
      }
    ]
  },
  "Fyrom": {
    "longitude": 21.745275,
    "latitude": 41.608635,
    "offices": [
      {
        "name": "Tetra Pak Production d.o.o",
        "address": "Todor Aleksandrov 165\n1000 Skopje, FYROM",
        "phoneNumber": "+389 2 3170 199",
        "fax": "+389 2 3109 618",
        "longitude": 21.419866382833163,
        "latitude": 41.98427480431705,
        "localSiteUrl": ""
      }
    ]
  },
  "Gabon": {
    "longitude": 11.609444,
    "latitude": -0.803689,
    "offices": [
      {
        "name": "Tetra Pak West Africa Ltd",
        "address": "8 Secretariat Road Coker Village\nAlausa Ikeja, Lagos",
        "phoneNumber": "+234 1 4483309",
        "fax": "+234 1 7912931",
        "longitude": 3.356083850949644,
        "latitude": 6.618666423861015,
        "localSiteUrl": "https://www.tetrapak.com/ng"
      }
    ]
  },
  "Gambia": {
    "longitude": -15.310139,
    "latitude": 13.443182,
    "offices": [
      {
        "name": "Tetra Pak West Africa Ltd",
        "address": "8 Secretariat Road Coker Village\nAlausa Ikeja, Lagos",
        "phoneNumber": "+234 1 4483309",
        "fax": "+234 1 7912931",
        "longitude": 3.356083850949644,
        "latitude": 6.618666423861015,
        "localSiteUrl": "https://www.tetrapak.com/ng"
      }
    ]
  },
  "Germany": {
    "longitude": 10.451526,
    "latitude": 51.165691,
    "offices": [
      {
        "name": "Tetra Pak Research GmbH",
        "address": "Untere Waldplätze 27D-70569 Stuttgart",
        "phoneNumber": "+49 711 687 049-0",
        "fax": "+49 711 687 049-50",
        "longitude": 9.08527,
        "latitude": 48.730109999999996,
        "localSiteUrl": "https://www.tetrapak.com/de"
      },
      {
        "name": "Tetra Pak Processing GmbH",
        "address": "Senefelder - Ring 27, D-21465 Reinbek",
        "phoneNumber": "+49 40 600 910",
        "fax": "+49 40 600 91800",
        "longitude": 10.23790211911009,
        "latitude": 53.53409249240849,
        "localSiteUrl": "https://www.tetrapak.com/de"
      },
      {
        "name": "Tetra Pak GmbH & Co. KG.",
        "address": "Frankfurter Strasse 85\nD-65239 Hochheim\nDeutschland",
        "phoneNumber": "+49 6146 590",
        "fax": "+49 6146 592 32",
        "longitude": 8.370055915715735,
        "latitude": 50.017622279417914,
        "localSiteUrl": "https://www.tetrapak.com/de"
      },
      {
        "name": "Tetra Pak GmbH & Co. KG.",
        "address": "Postfach 1651D\n65536 Limburg\nDeutschland",
        "phoneNumber": "+49 6431 7071",
        "fax": "+49 6431 707219",
        "longitude": 8.08101899999999,
        "latitude": 50.393513999999996,
        "localSiteUrl": "https://www.tetrapak.com/de"
      }
    ]
  },
  "Ghana": {
    "longitude": -1.023194,
    "latitude": 7.946527,
    "offices": [
      {
        "name": "Tetra Pak West Africa Ltd",
        "address": "8 Secretariat Road Coker Village\nAlausa Ikeja, Lagos",
        "phoneNumber": "+234 1 4483309",
        "fax": "+234 1 7912931",
        "longitude": 3.356083850949644,
        "latitude": 6.618666423861015,
        "localSiteUrl": "https://www.tetrapak.com/ng"
      }
    ]
  },
  "Greece": {
    "longitude": 21.824312,
    "latitude": 39.074208,
    "offices": [
      {
        "name": "Tetra Pak Hellas S.A.",
        "address": "Sorou 10, Maroussi, Athens, Greece",
        "phoneNumber": "+30 210 616 7500",
        "fax": "+30 210 619 9690",
        "longitude": 23.805462915702677,
        "latitude": 38.045454804312044,
        "localSiteUrl": "https://www.tetrapak.com/gr"
      }
    ]
  },
  "Guinea": {
    "longitude": 9.945587,
    "latitude": -9.696645,
    "offices": [
      {
        "name": "Tetra Pak West Africa Ltd",
        "address": "8 Secretariat Road Coker Village\nAlausa Ikeja, Lagos",
        "phoneNumber": "+234 1 4483309",
        "fax": "+234 1 7912931",
        "longitude": 3.356083850949644,
        "latitude": 6.618666423861015,
        "localSiteUrl": "https://www.tetrapak.com/ng"
      }
    ]
  },
  "Hungary": {
    "longitude": 19.503304,
    "latitude": 47.162494,
    "offices": [
      {
        "name": "Tetra Pak Hungária Zrt.",
        "address": "Tetra Pak Csomagolóanyag\nGyártó Zrt.\n2040 Budaörs\nLégimentő u. 6.\n\nLevelezési cím:\n2041 Budaörs Pf. 200",
        "phoneNumber": "+36 23 885 200",
        "fax": "+36 23 418 010",
        "longitude": 18.904231,
        "latitude": 47.456075,
        "localSiteUrl": "https://www.tetrapak.com/hu"
      }
    ]
  },
  "India": {
    "longitude": 78.96288,
    "latitude": 20.593684,
    "offices": [
      {
        "name": "Tetra Pak India Pvt. Ltd",
        "address": "Plot No 53, MIDC Chakan\nPhase 2, Village Vasuli,\nTal Khed,\nDistrict Pune 410 501\nMaharashtra\n",
        "phoneNumber": "+91 2135 678101",
        "fax": "+91 2135 661801",
        "longitude": 73.75104253111309,
        "latitude": 18.783348942103054,
        "localSiteUrl": "https://www.tetrapak.com/in"
      },
      {
        "name": "Tetra Pak India Private Limited",
        "address": "Tower, B, 7th Floor\nRMZ Millenia\nMurphy Road, Ulsoor,\nBangalore :560008",
        "phoneNumber": "+91 080 25540681 / 25540372 / 25547553",
        "fax": "",
        "longitude": 13.1676404,
        "latitude": 55.6998089,
        "localSiteUrl": "https://www.tetrapak.com/in"
      },
      {
        "name": "Tetra Pak India Pvt. Ltd.",
        "address": "Tetra Pak India Pvt Ltd\nDLF Cyber Terrace, Building No. 5, Tower C,\n16th Floor, Cyber City, DLF Phase III, Gurgaon 122002",
        "phoneNumber": " +91 124 412 4600",
        "fax": " +91 124 406 4308",
        "longitude": 77.08926172923744,
        "latitude": 28.487116946120036,
        "localSiteUrl": "https://www.tetrapak.com/in"
      }
    ]
  },
  "Indonesia": {
    "longitude": 113.921327,
    "latitude": -0.789275,
    "offices": [
      {
        "name": "P.T. Tetra Pak Indonesia",
        "address": "2nd Floor Tetra Pak Bldg,\nJl. Buncit Raya Kav. 100,\nJakarta 12510",
        "phoneNumber": "+62 21 7917 8000",
        "fax": "+62 21 7917 8080",
        "longitude": 106.828732,
        "latitude": -6.278173999999996,
        "localSiteUrl": "https://www.tetrapak.com/id"
      },
      {
        "name": "Stainless Steel",
        "address": "Jl. Raya Pulogebang km 3,\nCakung Jakarta 13950\nIndonesia\n",
        "phoneNumber": "+62 21 48700967",
        "fax": "+62 21 4801040, +62 21 4801334",
        "longitude": 107.09646199999999,
        "latitude": -6.331402,
        "localSiteUrl": ""
      }
    ]
  },
  "Indonesia Stainless Equipment": {
    "longitude": 113.921327,
    "latitude": -0.789275,
    "offices": [
      {
        "name": "Tetra Pak Stainless Equipment",
        "address": "Jl. Raya Pulogebang km 3, Cakung Jakarta 13950\n",
        "phoneNumber": "+62 21 48700967",
        "fax": "+62 21 4801040, +62 21 4801334",
        "longitude": 107.09646199999999,
        "latitude": -6.331402,
        "localSiteUrl": "https://www.tetrapak.com/id"
      }
    ]
  },
  "Iran": {
    "longitude": 53.688046,
    "latitude": 32.427908,
    "offices": [
      {
        "name": "Tetra Pak Iran",
        "address": "1st Floor, Khorshid Bldg., No. 2540 Vali Asr Ave. Tehran 1435674173 P.O. Box: 19395-6395 Tehran, Iran",
        "phoneNumber": "+98 21 82 139 000",
        "fax": "+98 21 82 139 199",
        "longitude": 51.410714000000006,
        "latitude": 35.753378,
        "localSiteUrl": "https://www.tetrapak.com/ir"
      }
    ]
  },
  "Iraq": {
    "longitude": 43.679291,
    "latitude": 33.223191,
    "offices": [
      {
        "name": "Tetra Pak East Med.  (Office hosted in Lebanon)",
        "address": "Rizkallah & Boutros Bldg, 1st floorMetropolitan roundabout, Sin El Fil, Lebanon",
        "phoneNumber": "+961-1-482 666",
        "fax": "+961-1-482 777",
        "longitude": 13.1676404,
        "latitude": 55.6998089,
        "localSiteUrl": ""
      }
    ]
  },
  "Ireland": {
    "longitude": -8.24389,
    "latitude": 53.41291,
    "offices": [
      {
        "name": "Tetra Pak Ireland Ltd",
        "address": "5th Floor, 1 Tuansgate\nBelgard Square E\nDublin 24\nIreland\n\nDirections: The office is located on the 5th Floor of the Tuansgate building in Tallaght which also houses the Head Office of the South Dublin VEC. The building is adjacent to The Square Town Centre and is located opposite the carpark for Debenhams.",
        "phoneNumber": "+353 1 4678000",
        "fax": "+353 1 4678088",
        "longitude": -6.368846000000028,
        "latitude": 53.28750999999999,
        "localSiteUrl": "https://www.tetrapak.com/ie"
      }
    ]
  },
  "Israel": {
    "longitude": 34.851612,
    "latitude": 31.046051,
    "offices": [
      {
        "name": "Responsible Market for Israel is Tetra Pak Greece",
        "address": "Sorou 10, Maroussi, Athens\n\nFor Processing Solutions please contact\nMr. Vassilis Xenoyiannis, tel. +30 210 6167500, \nemail: Vassilis.Xenoyiannis@tetrapak.com\n",
        "phoneNumber": "+30 210 6167500",
        "fax": " +30 210 6199690",
        "longitude": 23.808670499999995,
        "latitude": 38.045085199999995,
        "localSiteUrl": ""
      }
    ]
  },
  "Italy": {
    "longitude": 12.56738,
    "latitude": 41.87194,
    "offices": [
      {
        "name": "Tetra Pak Food Engineering SpA",
        "address": "Via Giuseppe Saragat, 4\nI-20054 Nova Milanese (MI)\n",
        "phoneNumber": "+39 0362 4951",
        "fax": "+39 0362 495 300 or 400",
        "longitude": 9.183980900000002,
        "latitude": 45.58536099999999,
        "localSiteUrl": "https://www.tetrapak.com/it"
      },
      {
        "name": "Novembal Imballaggi S.R.L.",
        "address": "Via Roncarino, 3\nI-15079 Sezzadio (AL)",
        "phoneNumber": "+ 39 0131 703131",
        "fax": "+ 39 0131 703614",
        "longitude": 8.5779225,
        "latitude": 44.7827528,
        "localSiteUrl": "https://www.tetrapak.com/it"
      },
      {
        "name": "Tetra Pak Italiana S.p.A.",
        "address": "Viale Della Resistenza 56/A\nI-42048 Rubiera (RE)\n",
        "phoneNumber": "+39 0522 26 34 11",
        "fax": "+39 0522 26 36 59",
        "longitude": 10.780561200000001,
        "latitude": 44.644279499999996,
        "localSiteUrl": "https://www.tetrapak.com/it"
      },
      {
        "name": "Tetra Pak Packaging Solutions S.p.A.",
        "address": "Via Delfini, 1, Modena\n",
        "phoneNumber": "+39 059 898 222",
        "fax": "+39 059 898 134",
        "longitude": 10.878439,
        "latitude": 44.6559031,
        "localSiteUrl": "https://www.tetrapak.com/it"
      }
    ]
  },
  "Ivory Coast": {
    "longitude": 13.1676404,
    "latitude": 55.6998089,
    "offices": [
      {
        "name": "Tetra Pak West Africa Ltd",
        "address": "8 Secretariat Road Coker Village\nAlausa Ikeja, Lagos",
        "phoneNumber": "+234 1 4483309",
        "fax": "+234 1 7912931",
        "longitude": 3.356083850949644,
        "latitude": 6.618666423861015,
        "localSiteUrl": "https://www.tetrapak.com/ng"
      }
    ]
  },
  "Japan": {
    "longitude": 138.252924,
    "latitude": 36.204824,
    "offices": [
      {
        "name": "Nihon Tetra Pak K.K. - Technical Centre",
        "address": "〒412-0047 静岡県御殿場市神場上ノ原755-1\n",
        "phoneNumber": "",
        "fax": "",
        "longitude": 138.9006894,
        "latitude": 35.28198289999999,
        "localSiteUrl": "https://www.tetrapak.com/jp"
      },
      {
        "name": "Gotemba Tetra Pak L.L.C.",
        "address": "5-1, Itazuma, Gotemba\n412-0048, Shizuoka",
        "phoneNumber": "",
        "fax": "",
        "longitude": 138.900061,
        "latitude": 35.28329,
        "localSiteUrl": "https://www.tetrapak.com/jp"
      },
      {
        "name": "Nihon Tetra Pak K.K.",
        "address": "8F Iidabashi Grand Bloom, \n2-10-2 Fujimi, \nChiyoda-ku, Tokyo 102-0071 ",
        "phoneNumber": "",
        "fax": "",
        "longitude": 139.7436851,
        "latitude": 35.6988868,
        "localSiteUrl": "https://www.tetrapak.com/jp"
      }
    ]
  },
  "Jordan": {
    "longitude": 36.238414,
    "latitude": 30.585164,
    "offices": [
      {
        "name": "Tetra Pak East Med.",
        "address": "Shmeisani, 27 Ahmad Orabi Street (Opposite Al-Fayha Mosque) 11194, Amman, Jordan\n(P.O. Box: 941320)\n",
        "phoneNumber": "+962 65 62 09 23",
        "fax": "+962 65 69 43 93",
        "longitude": 35.889255,
        "latitude": 31.971505000000004,
        "localSiteUrl": ""
      }
    ]
  },
  "Kazakhstan": {
    "longitude": 66.923684,
    "latitude": 48.019573,
    "offices": [
      {
        "name": "Tetra Pak Kazakhstan Ltd.LLP ",
        "address": "22, Zenkov Street\n050010, Almaty\nRepublic of Kazakhstan\n\n",
        "phoneNumber": "+7 727 258 55 58",
        "fax": "",
        "longitude": 76.9576411,
        "latitude": 43.2506086,
        "localSiteUrl": "https://www.tetrapak.com/ru"
      }
    ]
  },
  "Kenya": {
    "longitude": 37.906193,
    "latitude": -0.023559,
    "offices": [
      {
        "name": "Tetra Pak Ltd",
        "address": "Enterprise/Likoni Road Junction,\nIndustrial Area Nairobi\nP.O. Box 78340 Nairobi 00507",
        "phoneNumber": "+254 71 102 1000, +254 20 690 9000",
        "fax": "+254 20 653 2083",
        "longitude": 36.80672958704753,
        "latitude": -1.2709085204293662,
        "localSiteUrl": ""
      },
      {
        "name": "Tetra Pak Limited",
        "address": "Tetra Pak, Enterprise Rd, Nairobi, Kenya",
        "phoneNumber": "+254 20 4278 000",
        "fax": "",
        "longitude": 36.85589291475398,
        "latitude": -1.3134635990420132,
        "localSiteUrl": ""
      }
    ]
  },
  "Kosovo": {
    "longitude": 20.902977,
    "latitude": 42.602636,
    "offices": [
      {
        "name": "Tetra Pak Production d.o.o.",
        "address": "Milutina Milankovica 11b,\n11070 Belgrade, Serbia",
        "phoneNumber": "+381 11 2017 333",
        "fax": "+381 11 2017 380",
        "longitude": 20.406795260578836,
        "latitude": 44.81284758848052,
        "localSiteUrl": ""
      }
    ]
  },
  "Kuwait": {
    "longitude": 47.481766,
    "latitude": 29.31166,
    "offices": [
      {
        "name": "Tetra Pak Arabia Area",
        "address": "S-10107 South Zone\nSubhan Ind. Zone\nThe Kuwaiti Danish Dairy KCSC\nPO Box 835, Safat 13009 Kuwait\n",
        "phoneNumber": " +965 24 749 654",
        "fax": "",
        "longitude": 48.001338,
        "latitude": 29.230964000000004,
        "localSiteUrl": ""
      }
    ]
  },
  "Latvia": {
    "longitude": 24.603189,
    "latitude": 56.879635,
    "offices": [
      {
        "name": "Tetra Pak Latvia",
        "address": "Jaunmoku 34, Rīga, LV-1046",
        "phoneNumber": "+371 6760 2000",
        "fax": "",
        "longitude": 24.037369815976472,
        "latitude": 56.92728458088371,
        "localSiteUrl": ""
      },
      {
        "name": "Tetra Pak Baltic States",
        "address": "Jaunmoku 34, Rīga, LV-1046",
        "phoneNumber": "+371 6760 2000",
        "fax": "",
        "longitude": 24.037369815976472,
        "latitude": 56.92728458088371,
        "localSiteUrl": ""
      }
    ]
  },
  "Lebanon": {
    "longitude": 35.862285,
    "latitude": 33.854721,
    "offices": [
      {
        "name": "Tetra Pak Lebanon",
        "address": "Zaidan 867 Building, 2nd Floor,\nZouk el Kharab area, Hotel le Royal Intersection,\nBeirut, Lebanon",
        "phoneNumber": "+961 4 549444  ",
        "fax": "+961 4 549555",
        "longitude": 35.591706095048124,
        "latitude": 33.949505822667646,
        "localSiteUrl": ""
      }
    ]
  },
  "Liberia": {
    "longitude": -9.429499,
    "latitude": 6.428055,
    "offices": [
      {
        "name": "Tetra Pak West Africa Ltd",
        "address": "8 Secretariat Road Coker Village\nAlausa Ikeja, Lagos",
        "phoneNumber": "+234 1 4483309",
        "fax": "+234 1 7912931",
        "longitude": 3.356083850949644,
        "latitude": 6.618666423861015,
        "localSiteUrl": "https://www.tetrapak.com/ng"
      }
    ]
  },
  "Lithuania": {
    "longitude": 23.881275,
    "latitude": 55.169438,
    "offices": [
      {
        "name": "Tetra Pak Lithuania",
        "address": "A. Juozapaviciaus 6/2LT-2005 Vilnius",
        "phoneNumber": "+370 5 275 58 58",
        "fax": "+370 5 275 58 75",
        "longitude": 25.28099291588966,
        "latitude": 54.6930957802833,
        "localSiteUrl": ""
      }
    ]
  },
  "Malaysia": {
    "longitude": 101.975766,
    "latitude": 4.210484,
    "offices": [
      {
        "name": "Tetra Pak Malaysia Sdn Bhd",
        "address": "1201, Level 12, Uptown 2, 2, Jalan SS 21/37, Damansara Uptown, Petaling Jaya, 47400, Petaling Jaya, Selangor, 47300, Malaysia ‎",
        "phoneNumber": "+603 7724 7000",
        "fax": "+603 7729 1166",
        "longitude": 101.61847842663424,
        "latitude": 3.1409708075262586,
        "localSiteUrl": "https://www.tetrapak.com/my"
      }
    ]
  },
  "Mali": {
    "longitude": -3.996166,
    "latitude": 17.570692,
    "offices": [
      {
        "name": "Tetra Pak West Africa Ltd",
        "address": "8 Secretariat Road Coker Village\nAlausa Ikeja, Lagos",
        "phoneNumber": "+234 1 4483309",
        "fax": "+234 1 7912931",
        "longitude": 3.356083850949644,
        "latitude": 6.618666423861015,
        "localSiteUrl": "https://www.tetrapak.com/ng"
      }
    ]
  },
  "Mexico": {
    "longitude": -102.552784,
    "latitude": 23.634501,
    "offices": [
      {
        "name": "Tetra Pak Querétaro S.A. de C.V.",
        "address": "Carretera Libre a Celaya Km. 9.5,\nFracc. Villa Corregidora, Qro.\n76900 Querétaro, Qro.",
        "phoneNumber": "+52(44)-22-11-2000",
        "fax": "+52 442 211 20 44",
        "longitude": -100.46581233120537,
        "latitude": 20.53794754312404,
        "localSiteUrl": "https://www.tetrapak.com/mx"
      },
      {
        "name": "Tetra Pak Naucalpan S.A. de C.V.",
        "address": "Km 1 Carretera Tepotzotlán-La Aurora\nParque Logístico O’Donnell OCPL 3 Módulo 1\nEx­-Hacienda San Miguel\nCuautitlán Izcalli, Estado de México\nC.P. 54715",
        "phoneNumber": "+52(55) 26-29-66-00",
        "fax": "+52 26-29-66-74",
        "longitude": -99.21692848440694,
        "latitude": 19.700824337152362,
        "localSiteUrl": "https://www.tetrapak.com/mx"
      },
      {
        "name": "Tetra Pak Mexico",
        "address": "Ave. Ejército Nacional No. 843-B\nAntara Polanco, Torre paseo, Acceso A-Piso 2\nCol. Granada, 11520 México, D.F.",
        "phoneNumber": "+52 (55) 2122 8700 ",
        "fax": "+52 (55) 2122 8747",
        "longitude": -99.20151499999997,
        "latitude": 19.438824999999998,
        "localSiteUrl": "https://www.tetrapak.com/mx"
      }
    ]
  },
  "Moldova": {
    "longitude": 28.369885,
    "latitude": 47.411631,
    "offices": [
      {
        "name": "Tetra Pak Moldova",
        "address": "Tetra Pak Romania SRL\nBaneasa Airport Tower, etaj 3 Str. Ion Ionescu de la Brad 1A, Sector 1 013811 Bucuresti",
        "phoneNumber": "+40 (0)21 269 15 90/91/92",
        "fax": "+40 (0)21 269 15 93",
        "longitude": 26.077195289345823,
        "latitude": 44.495486692933014,
        "localSiteUrl": ""
      }
    ]
  },
  "Montenegro": {
    "longitude": 19.37439,
    "latitude": 42.708678,
    "offices": [
      {
        "name": "Tetra Pak Production d.o.o.",
        "address": "Milutina Milankovica 11b,\n11070 Belgrade, Serbia",
        "phoneNumber": "+381 11 2017 333",
        "fax": "+381 11 2017 380",
        "longitude": 20.40698337768678,
        "latitude": 44.813258136329225,
        "localSiteUrl": ""
      }
    ]
  },
  "Morocco": {
    "longitude": -7.09262,
    "latitude": 31.791702,
    "offices": [
      {
        "name": "Tetra Pak Maghreb",
        "address": "69, Rue Othmane Bnou Affane 20 000 Casablanca",
        "phoneNumber": "+212 5 22 48 81 50",
        "fax": "+212 5 22 48 81 51",
        "longitude": -7.575037412314113,
        "latitude": 33.59162922049501,
        "localSiteUrl": ""
      }
    ]
  },
  "Netherlands": {
    "longitude": 5.291266,
    "latitude": 52.132633,
    "offices": [
      {
        "name": "Tetra Pak Cheese and Powder Systems B.V",
        "address": "Venus 100, 8448 GW\nPO Box 637, 8440 AP\nHeerenveen, The Netherlands",
        "phoneNumber": "+31 513 49 61 00",
        "fax": "+31 513 49 61 99",
        "longitude": 5.927198751158449,
        "latitude": 52.974533379804186,
        "localSiteUrl": "https://www.tetrapak.com/nl"
      },
      {
        "name": "Tetra Pak B.V.",
        "address": "Johan de Wittstraat 156\n3311 KJ Dordrecht\nThe Netherlands",
        "phoneNumber": "+ 31 (0) 78 700 1500",
        "fax": "",
        "longitude": 4.66601185110847,
        "latitude": 51.810086579586205,
        "localSiteUrl": "https://www.tetrapak.com/nl"
      },
      {
        "name": "Tetra Pak Processing Systems B.V.",
        "address": "Hoofdveste 18NL-3992 DG Houten",
        "phoneNumber": "+31 30 634 99 99",
        "fax": "+31 30 634 99 00",
        "longitude": 5.142074272491458,
        "latitude": 52.026806852944375,
        "localSiteUrl": "https://www.tetrapak.com/nl"
      },
      {
        "name": "Tetra Pak Cheese and Powder Systems B.V",
        "address": "Venus 100, 8448 GW\nPO Box 637, 8440 AP\nHeerenveen, The Netherlands",
        "phoneNumber": "+31 513 49 61 00",
        "fax": "+31 513 49 61 99",
        "longitude": 5.927198751158449,
        "latitude": 52.974533379804186,
        "localSiteUrl": "https://www.tetrapak.com/nl"
      }
    ]
  },
  "New Zealand": {
    "longitude": 174.885971,
    "latitude": -40.900557,
    "offices": [
      {
        "name": "Tetra Pak (New Zealand) Ltd",
        "address": "6-8 Melody Lane, Waikato Innovation Park,\nHamilton 3216, New Zealand\n",
        "phoneNumber": " +64 7 859 1442",
        "fax": " +64 7 859 1980",
        "longitude": 175.3058353153177,
        "latitude": -37.77780897975885,
        "localSiteUrl": "https://www.tetrapak.com/au"
      }
    ]
  },
  "Niger": {
    "longitude": 8.081666,
    "latitude": 17.607789,
    "offices": [
      {
        "name": "Tetra Pak West Africa Ltd",
        "address": "8 Secretariat Road Coker Village\nAlausa Ikeja, Lagos",
        "phoneNumber": "+234 1 4483309",
        "fax": "+234 1 7912931",
        "longitude": 3.356083850949644,
        "latitude": 6.618666423861015,
        "localSiteUrl": "https://www.tetrapak.com/ng"
      }
    ]
  },
  "Nigeria": {
    "longitude": 8.675277,
    "latitude": 9.081999,
    "offices": [
      {
        "name": "Tetra Pak West Africa Ltd",
        "address": "2, IPM Avenue, \nAlausa, Ikeja, \nLagos.",
        "phoneNumber": "+234 17 91 29 31",
        "fax": "",
        "longitude": 3.356083850949644,
        "latitude": 6.618666423861015,
        "localSiteUrl": "https://www.tetrapak.com/ng"
      }
    ]
  },
  "Norway": {
    "longitude": 8.468946,
    "latitude": 60.472024,
    "offices": [
      {
        "name": "Tetra Pak Norge AS",
        "address": "Visiting address: Vollsveien 2 b,NO-1327 \nLysaker\n\nPostal address: P.O. Box 477, NO-1327 Lysaker",
        "phoneNumber": "+47 67 83 30 00",
        "fax": "+47 67 83 30 01",
        "longitude": 10.63435900000001,
        "latitude": 59.911342000000005,
        "localSiteUrl": ""
      }
    ]
  },
  "Pakistan": {
    "longitude": 69.345116,
    "latitude": 30.375321,
    "offices": [
      {
        "name": "Tetra Pak Pakistan Ltd",
        "address": "316 Upper Mall P O Box 3061 54000 Lahore",
        "phoneNumber": "+92 42 359 89 100",
        "fax": "+92 42 357 10 065",
        "longitude": 74.35831788270778,
        "latitude": 31.53942902153623,
        "localSiteUrl": "https://www.tetrapak.com/pk"
      },
      {
        "name": "Tetra Pak Pakistan Ltd",
        "address": "701-704 Sundar Industrial Estate\nGate Number 2\nRaiwind Road, Lahore",
        "phoneNumber": "+92 42 378 29000",
        "fax": "+92 42 581 2095",
        "longitude": 74.18667105220452,
        "latitude": 31.283742869859466,
        "localSiteUrl": "https://www.tetrapak.com/pk"
      },
      {
        "name": "Tetra Pak Pakistan South Office",
        "address": "225-227 Second Floor, The Forum,\nBlock 9, Clifton Karachi 75600.",
        "phoneNumber": "+92 21 530 1377",
        "fax": "+92 21 530 1381",
        "longitude": 67.03560931470086,
        "latitude": 24.82721185270438,
        "localSiteUrl": "https://www.tetrapak.com/pk"
      }
    ]
  },
  "Panama": {
    "longitude": -80.782127,
    "latitude": 8.537981,
    "offices": [
      {
        "name": "Tetra Pak, S.A. (Central America & Caribbean)",
        "address": "Edificio Plaza Globus, piso 7, Ave. Samuel Lewis y calle 55 Obarrio Panama, Republica de Panama",
        "phoneNumber": "(507) 208-5800",
        "fax": "(507) 264-2600",
        "longitude": -79.52170256241865,
        "latitude": 8.98710223023014,
        "localSiteUrl": "https://www.tetrapak.com/pa-sp"
      }
    ]
  },
  "Paraguay": {
    "longitude": -58.443832,
    "latitude": -23.442503,
    "offices": [
      {
        "name": "Tetra Pak Paraguay",
        "address": "Av. Herib Campos Cervera 886 y Tregnaghi\n1er. Piso - Oficina 102 - Edificio Australia\nAsunción – Paraguay",
        "phoneNumber": "+595 21 619 7000",
        "fax": "",
        "longitude": -57.5639584,
        "latitude": -25.28219159999998,
        "localSiteUrl": "https://www.tetrapak.com/py"
      }
    ]
  },
  "Peru": {
    "longitude": -75.015152,
    "latitude": -9.189967,
    "offices": [
      {
        "name": "Tetra Pak S.A.",
        "address": "Av. Jorge Basadre 347 piso 6,\nSan Isidro\nLima,\nPerú",
        "phoneNumber": "+51 1 319 8800",
        "fax": "+51 1 319 8810",
        "longitude": 13.1676404,
        "latitude": 55.6998089,
        "localSiteUrl": "https://www.tetrapak.com/pe"
      }
    ]
  },
  "Philippines": {
    "longitude": 121.774017,
    "latitude": 12.879721,
    "offices": [
      {
        "name": "Tetra Pak Philippines, Inc.",
        "address": "7th Floor Net One Center 26th St., Fort Bonifacio Global City,\nTaguig 1634, Metro Manila",
        "phoneNumber": "&nbsp;+632 7  976 3400",
        "fax": "+63 2 818 1072",
        "longitude": 121.04607036425224,
        "latitude": 14.549610195300684,
        "localSiteUrl": "https://www.tetrapak.com/ph"
      }
    ]
  },
  "Poland": {
    "longitude": 19.145136,
    "latitude": 51.919438,
    "offices": [
      {
        "name": "Tetra Pak sp z o.o.",
        "address": "ul. Osmańska 14\n02-823 Warszawa\n",
        "phoneNumber": "+48 22 54 34 000",
        "fax": "+48 22 54 34 001",
        "longitude": 20.994605,
        "latitude": 52.155004,
        "localSiteUrl": "https://www.tetrapak.com/pl"
      }
    ]
  },
  "Portugal": {
    "longitude": -8.224454,
    "latitude": 39.399872,
    "offices": [
      {
        "name": "Tetra Pak Portugal SA.",
        "address": "Av. do Forte 12 2790-072 Carnaxide",
        "phoneNumber": "+351 21 416 56 00",
        "fax": "+351 21 416 57 71",
        "longitude": -9.234854,
        "latitude": 38.723727,
        "localSiteUrl": "https://www.tetrapak.com/pt"
      },
      {
        "name": "Tetra Pak Tubex Portugal, Lda",
        "address": "Av. do Forte 12 2790-072 Carnaxide",
        "phoneNumber": "+351 21 416 56 00",
        "fax": "+351 21 416 57 76",
        "longitude": -9.234854,
        "latitude": 38.723727,
        "localSiteUrl": "https://www.tetrapak.com/pt"
      }
    ]
  },
  "Romania": {
    "longitude": 24.96676,
    "latitude": 45.943161,
    "offices": [
      {
        "name": "Tetra Pak Romania SRL",
        "address": "4D, Gara Herastrau street, Green Court Bucharest, Building C, 7th floor, district 2, 020334 Bucharest",
        "phoneNumber": "+40 (0)21 269 15 90/91/92",
        "fax": "+40 (0)21 269 15 93",
        "longitude": 26.07594788849996,
        "latitude": 44.49497470274542,
        "localSiteUrl": "https://www.tetrapak.com/ro"
      }
    ]
  },
  "Russia": {
    "longitude": 105.318756,
    "latitude": 61.52401,
    "offices": [
      {
        "name": "AO Tetra Pak",
        "address": "2 Krasnopolyanskoe shosse, 141730 Moscow region, Lobnya, Russian Federation",
        "phoneNumber": "+7 495 787 47 24",
        "fax": "",
        "longitude": 37.435785967271194,
        "latitude": 56.02779158176945,
        "localSiteUrl": "https://www.tetrapak.com/ru"
      },
      {
        "name": "AO Tetra Pak",
        "address": "8, Wilhelm Pieck Street, 129226, Moscow, Russian Federation",
        "phoneNumber": "+7 (495) 787 8000",
        "fax": "",
        "longitude": 37.63373731545123,
        "latitude": 55.839487992771026,
        "localSiteUrl": "https://www.tetrapak.com/ru"
      },
      {
        "name": "AO Tetra Pak",
        "address": "117 Budennogo str., bldg 2, 350000 Krasnodar (offices 410/411/412), Russian Federation",
        "phoneNumber": "+7 861 210 00 68",
        "fax": "",
        "longitude": 38.966716869928185,
        "latitude": 45.03693188993319,
        "localSiteUrl": "https://www.tetrapak.com/ru"
      }
    ]
  },
  "Saudi Arabia": {
    "longitude": 45.079162,
    "latitude": 23.885942,
    "offices": [
      {
        "name": "Tetra Pak Manufacturing Limited",
        "address": "Northern Ring Road, between Exit 6 & 7\nDemyat Street, Al-Taawun District\nP.O. Box 54380, Riyadh 11514",
        "phoneNumber": "+966 11 443 3488",
        "fax": "+966 11 443 3467",
        "longitude": 13.1676404,
        "latitude": 55.6998089,
        "localSiteUrl": "https://www.tetrapak.com/sa"
      },
      {
        "name": "Tetra Pak Manufacturing Limited",
        "address": "Lot No. 88-103, Phase 3\nJCCI Warehouse City\nPO Box 9454, Jeddah 21413",
        "phoneNumber": "+966 12 268 8000 +966 12 635 1515",
        "fax": "+966 12 636 2220",
        "longitude": 13.1676404,
        "latitude": 55.6998089,
        "localSiteUrl": "https://www.tetrapak.com/sa"
      }
    ]
  },
  "Saudi Arabia AR": {
    "longitude": 13.1676404,
    "latitude": 55.6998089,
    "offices": [
      {
        "name": "Tetra Pak Manufacturing Limited",
        "address": "Northern Ring Road, between Exit 6 & 7\nDemyat Street, Al-Taawun District\nP.O. Box 54380, Riyadh 11514\nSaudi Arabia",
        "phoneNumber": "+966 1 443 3488",
        "fax": "+966 1 443 3467",
        "longitude": 39.212804996216136,
        "latitude": 21.31028383022591,
        "localSiteUrl": ""
      },
      {
        "name": "Tetra Pak Manufacturing Limited",
        "address": "Lot No. 88-103, Phase 3\nJCCI Warehouse City\nPO Box 9454, Jeddah 21413\nSaudi Arabia",
        "phoneNumber": "+966 2 635 1515/636 0030",
        "fax": "+966 2 636 2220",
        "longitude": 39.21221800000002,
        "latitude": 21.31413800000001,
        "localSiteUrl": "https://www.tetrapak.com/sa"
      }
    ]
  },
  "Senegal": {
    "longitude": -14.452362,
    "latitude": 14.497401,
    "offices": [
      {
        "name": "Tetra Pak West Africa Ltd",
        "address": "8 Secretariat Road Coker Village\nAlausa Ikeja, Lagos",
        "phoneNumber": "+234 1 4483309",
        "fax": "+234 1 7912931",
        "longitude": 3.356083850949644,
        "latitude": 6.618666423861015,
        "localSiteUrl": "https://www.tetrapak.com/ng"
      }
    ]
  },
  "Serbia": {
    "longitude": 21.005859,
    "latitude": 44.016521,
    "offices": [
      {
        "name": "Tetra Pak Production d.o.o.",
        "address": "Milutina Milankovića 9ž,\n11000 Beograd, Srbija",
        "phoneNumber": "+381 11 2017 333",
        "fax": "+381 11 2017 380 ",
        "longitude": 20.40490915141588,
        "latitude": 44.813645884532576,
        "localSiteUrl": "https://www.tetrapak.com/rs"
      },
      {
        "name": "Tetra Pak Production d.o.o. Beograd",
        "address": "Obilazni put bb.\n32300 Gornji Milanovac, Serbia",
        "phoneNumber": "+381 32 770 100",
        "fax": "+381 32 711 344",
        "longitude": 20.4626,
        "latitude": 44.015404000000004,
        "localSiteUrl": "https://www.tetrapak.com/rs"
      }
    ]
  },
  "Sierra Leone": {
    "longitude": -11.779889,
    "latitude": 8.460555,
    "offices": [
      {
        "name": "Tetra Pak West Africa Ltd",
        "address": "8 Secretariat Road Coker Village\nAlausa Ikeja, Lagos",
        "phoneNumber": "+234 1 4483309",
        "fax": "+234 1 7912931",
        "longitude": 3.356083850949644,
        "latitude": 6.618666423861015,
        "localSiteUrl": "https://www.tetrapak.com/ng"
      }
    ]
  },
  "Singapore": {
    "longitude": 103.819836,
    "latitude": 1.352083,
    "offices": [
      {
        "name": "Tetra Pak South East Asia Pte Ltd",
        "address": "19, Gul Lane Singapore 629414",
        "phoneNumber": "+65 6 890 2000",
        "fax": "+65 6 890 2260",
        "longitude": 103.661391,
        "latitude": 1.311146,
        "localSiteUrl": "https://www.tetrapak.com/sg"
      },
      {
        "name": "Guerin Systems Asia PTE.LTD",
        "address": "6 Tagore Drive, # B1-07, Tagore Building",
        "phoneNumber": "(65) 6457 7893 ",
        "fax": "(65) 6458 0768",
        "longitude": 103.826424,
        "latitude": 1.385879,
        "localSiteUrl": ""
      },
      {
        "name": "Tetra Pak Jurong Pte Ltd",
        "address": "19, Gul Lane Singapore 629414",
        "phoneNumber": "+65 6 890 2000",
        "fax": "+65 6 890 2249",
        "longitude": 103.661391,
        "latitude": 1.311146,
        "localSiteUrl": "https://www.tetrapak.com/sg"
      }
    ]
  },
  "Slovakia": {
    "longitude": 19.699024,
    "latitude": 48.669026,
    "offices": [
      {
        "name": "Tetra Pak a.s.",
        "address": "Karadžičova 8/A\n821 08 Bratislava",
        "phoneNumber": "+421 2 5939 6148",
        "fax": "+420 261 007 166",
        "longitude": 17.124516,
        "latitude": 48.147762,
        "localSiteUrl": "https://www.tetrapak.com/sk"
      }
    ]
  },
  "Slovenia": {
    "longitude": 14.995463,
    "latitude": 46.151241,
    "offices": [
      {
        "name": "Tetra Pak d.o.o.",
        "address": "Trg republike 3\n1000 Ljubljana\nSlovenija",
        "phoneNumber": "+386 1 320 6220, +386 1 320 6221 ",
        "fax": "",
        "longitude": 14.500789,
        "latitude": 46.050652,
        "localSiteUrl": ""
      }
    ]
  },
  "South Africa": {
    "longitude": 22.937506,
    "latitude": -30.559482,
    "offices": [
      {
        "name": "Tetra Pak South Africa Ltd",
        "address": "20 Blair Road Pinetown 3610",
        "phoneNumber": "+27 31 7100 200",
        "fax": "",
        "longitude": 30.880253999999997,
        "latitude": -29.816703999999998,
        "localSiteUrl": "https://www.tetrapak.com/za"
      },
      {
        "name": "Tetra Pak South Africa Ltd",
        "address": "1st floor, Drakenzicht, Tyberger Office Park, 163 Uys Krige Street, Plattekloof, Cape Town, South Africa, 7501",
        "phoneNumber": "010 601 7000",
        "fax": "",
        "longitude": 13.1676404,
        "latitude": 55.6998089,
        "localSiteUrl": "https://www.tetrapak.com/za"
      },
      {
        "name": "Tetra Pak South Africa Ltd",
        "address": "7th floor, Douglas Roberts Centre, 22 Skeen Boulevard, Bedfordview, Johannesburg, Gauteng, South Africa, 2007",
        "phoneNumber": "010 601 7000",
        "fax": "",
        "longitude": 13.1676404,
        "latitude": 55.6998089,
        "localSiteUrl": "https://www.tetrapak.com/za"
      }
    ]
  },
  "South Korea": {
    "longitude": 127.766922,
    "latitude": 35.907757,
    "offices": [
      {
        "name": "Tetra Pak Korea",
        "address": "서울특별시 용산구 ‎ \n7F Hyundai Ansung Tower\n217 Itaewon-ro, Yongsan-gu\nSeoul 140-893, South Korea",
        "phoneNumber": "+82 2 799 2300",
        "fax": "+82 2 799 3498",
        "longitude": 126.9951954,
        "latitude": 37.5342103,
        "localSiteUrl": "https://www.tetrapak.com/kr"
      },
      {
        "name": "Tetra Pak Korea - Technical Services",
        "address": "5F Geumdam Bldg, Seongnam-daero 997 beon-gil 7 (Yeosu-dong) Jungwon-gu, Seongnam-si, Gyeonggi-do, 13438, South Korea",
        "phoneNumber": "+82 31 638 6700",
        "fax": "+82 31 638 6706",
        "longitude": 127.127198829225,
        "latitude": 37.418772063865454,
        "localSiteUrl": "https://www.tetrapak.com/kr"
      }
    ]
  },
  "Spain": {
    "longitude": -3.74922,
    "latitude": 40.463667,
    "offices": [
      {
        "name": "Novembal Embalajes Plásticos, S.L.U.",
        "address": "Autovia Sevilla - Málaga KM 12 Carretera Las Canteras s/n Apartado de Correos 347 41500 Alcala de Guadaira (Sevilla)",
        "phoneNumber": "+ 34 95 561 05 52",
        "fax": "+ 34 95 561 46 56",
        "longitude": -5.842943763639161,
        "latitude": 37.33847812494866,
        "localSiteUrl": "https://www.tetrapak.com/es"
      },
      {
        "name": "Tetra Pak Envases S.A.",
        "address": "Calle del Latón, 8\n28500 Arganda del Rey\nMadrid",
        "phoneNumber": "+34 91 876 9500",
        "fax": "+34 91 871 6390",
        "longitude": -3.4705138486823794,
        "latitude": 40.30210947042455,
        "localSiteUrl": "https://www.tetrapak.com/es"
      },
      {
        "name": "Tetra Pak Hispania S.A.",
        "address": "Calle del Latón, 8\n28500 Arganda del Rey\nMadrid",
        "phoneNumber": "+34 91 876 9500",
        "fax": "+34 91 871 6390",
        "longitude": -3.4705138486823794,
        "latitude": 40.30210947042455,
        "localSiteUrl": "https://www.tetrapak.com/es"
      }
    ]
  },
  "Sri Lanka": {
    "longitude": 80.771797,
    "latitude": 7.873054,
    "offices": [
      {
        "name": "Tetra Pak Asian Emerging Markets",
        "address": "No. 42, 12th Floor,\nDHPL Building,\nNawam Mawatha",
        "phoneNumber": "+94 11 2314342 ",
        "fax": "+94 1 314343",
        "longitude": 13.190959829407474,
        "latitude": 55.68719225009939,
        "localSiteUrl": ""
      },
      {
        "name": "Tetra Pak Sri Lanka",
        "address": "No. 293 Galle Road, 2nd Floor Colombo 3",
        "phoneNumber": "+94-11 2314479",
        "fax": "+94 1 30 1207",
        "longitude": 79.8555446637388,
        "latitude": 6.909125656699001,
        "localSiteUrl": ""
      }
    ]
  },
  "Sweden": {
    "longitude": 18.643501,
    "latitude": 60.128161,
    "offices": [
      {
        "name": "Tetra Pak Nordics",
        "address": "Ruben Rausings gata SE-221 86 Lund SWEDEN",
        "phoneNumber": "+46 46 36 10 00",
        "fax": "",
        "longitude": 13.190959829407474,
        "latitude": 55.68719225009939,
        "localSiteUrl": "https://www.tetrapak.com/se"
      },
      {
        "name": "AB Tetra Pak",
        "address": "Ruben Rausings gata SE-221 86 Lund SWEDEN",
        "phoneNumber": "+46 46 36 10 00",
        "fax": "",
        "longitude": 13.190959829407474,
        "latitude": 55.68719225009939,
        "localSiteUrl": "https://www.tetrapak.com/se"
      }
    ]
  },
  "Switzerland": {
    "longitude": 8.227512,
    "latitude": 46.818188,
    "offices": [
      {
        "name": "Lamitrade SA",
        "address": "65, Av De Lavaux CH-1009 Pully",
        "phoneNumber": "+41 21 729 21 11",
        "fax": "+41 21 729 2695",
        "longitude": 6.662958476702953,
        "latitude": 46.511177431881045,
        "localSiteUrl": "https://www.tetrapak.com/de"
      },
      {
        "name": "Tetra Pak International SA",
        "address": "70 Avenue Général-Guisan\nCase Postale 446 CH-1009 Pully",
        "phoneNumber": "+41 21 729 2111",
        "fax": "+41 21 729 2244",
        "longitude": 6.644518000000001,
        "latitude": 46.5068385,
        "localSiteUrl": "https://www.tetrapak.com/de"
      },
      {
        "name": "Tetra Pak Global Supply SA",
        "address": "65, Av De Lavaux CH-1009 Pully",
        "phoneNumber": "+41 21 729 21 11",
        "fax": "+41 21 729 2695",
        "longitude": 6.6627439,
        "latitude": 46.5110319,
        "localSiteUrl": "https://www.tetrapak.com/chfr"
      },
      {
        "name": "Tetra Pak Schweiz AG",
        "address": "Europastrasse 30, CH-8152 Glattbrugg",
        "phoneNumber": "+41 44 804 66 00",
        "fax": "+41 44 804 66 50",
        "longitude": 8.561407299999999,
        "latitude": 47.4347858,
        "localSiteUrl": "https://www.tetrapak.com/de"
      }
    ]
  },
  "Syria": {
    "longitude": 38.996815,
    "latitude": 34.802075,
    "offices": [
      {
        "name": "Tetra Pak Syria (office located in Lebanon)",
        "address": "Mkalles 691 Centre\nP.O. Box: 86, Mkalles, Lebanon",
        "phoneNumber": "+961 1 693 777",
        "fax": "+961 1 693 888",
        "longitude": 35.48161599999999,
        "latitude": 33.90111198084304,
        "localSiteUrl": ""
      }
    ]
  },
  "Taiwan": {
    "longitude": 120.960515,
    "latitude": 23.69781,
    "offices": [
      {
        "name": "Tetra Pak Taiwan Ltd",
        "address": "4, Wen Ming 3rd Street, Lin Kou Industrial Park 3 Taoyuan",
        "phoneNumber": "+886 3 328 3111",
        "fax": "+886 3 327 1041",
        "longitude": 121.37785549999998,
        "latitude": 25.054637699999997,
        "localSiteUrl": "https://www.tetrapak.com/tw"
      }
    ]
  },
  "Thailand": {
    "longitude": 100.992541,
    "latitude": 15.870032,
    "offices": [
      {
        "name": "Tetra Pak (Thailand) Ltd.",
        "address": "689 Bhiraj Tower, 36th Floor,\nSukhumvit Road (Soi 35),\nKlongton Nua, Wattana,\nBangkok 10110, Thailand\n",
        "phoneNumber": "+662 018 3000",
        "fax": "+662 018 3010",
        "longitude": 100.56975429999999,
        "latitude": 13.730932600000006,
        "localSiteUrl": "https://www.tetrapak.com/th"
      },
      {
        "name": "Tetra Pak (Thailand) Ltd.",
        "address": "(Rayong Office/ Straw-Strip Factory)\nEastern Seaboard Industrial Estate (Rayong)\n109 Moo 4, Highway 331,\nPluak Daeng, Rayong 21140",
        "phoneNumber": "+66(0)38 927 600",
        "fax": "+66(0)38 927 645",
        "longitude": 101.15473104336506,
        "latitude": 13.007396644369095,
        "localSiteUrl": "https://www.tetrapak.com/th"
      }
    ]
  },
  "Togo": {
    "longitude": 0.824782,
    "latitude": 8.619543,
    "offices": [
      {
        "name": "Tetra Pak West Africa Ltd",
        "address": "8 Secretariat Road Coker Village\nAlausa Ikeja, Lagos",
        "phoneNumber": "+234 1 4483309",
        "fax": "+234 1 7912931",
        "longitude": 3.356083850949644,
        "latitude": 6.618666423861015,
        "localSiteUrl": "https://www.tetrapak.com/ng"
      }
    ]
  },
  "Tunisia": {
    "longitude": 9.537499,
    "latitude": 33.886917,
    "offices": [
      {
        "name": "Tetra Pak Tunisia",
        "address": "Immeuble Henda, 1er Etage\nLes Jardins du Lac - 1035 Tunis",
        "phoneNumber": "+216 71 198 624",
        "fax": "+216 71 197 880",
        "longitude": 10.753993399999999,
        "latitude": 34.739793899999995,
        "localSiteUrl": ""
      }
    ]
  },
  "Turkey": {
    "longitude": 35.243322,
    "latitude": 38.963745,
    "offices": [
      {
        "name": "Tetra Pak Turkey",
        "address": "Buyukdere Caddesi Nurol\nPlaza No: 255 A\nBlok Kat: 10 34398\nMaslak - Istanbul ",
        "phoneNumber": "+90 212 444 68 78 ",
        "fax": "+90 212 276 62 44",
        "longitude": 29.02389,
        "latitude": 41.115093,
        "localSiteUrl": "https://www.tetrapak.com/tr"
      },
      {
        "name": "Tetra Pak Paketleme San. ve Tic. Ltd. Sti",
        "address": "Ankara Caddesi No:363\nAnsızca Köyü,\n35170 Kemalpasa\nIzmir",
        "phoneNumber": "+90 232 8701100 ",
        "fax": "+90 232 878 2428 ",
        "longitude": 27.421292609878957,
        "latitude": 38.45712697804444,
        "localSiteUrl": "https://www.tetrapak.com/tr"
      }
    ]
  },
  "UK": {
    "longitude": -3.435973,
    "latitude": 55.378051,
    "offices": [
      {
        "name": "Tetra Pak Ltd",
        "address": "Eagle House\nGomm Road\nPeregrine Business Park\nHigh Wycombe\nHP13 7DL \nUK",
        "phoneNumber": "+44 (0) 1494 886 000",
        "fax": "+44 (0) 1494 886 001",
        "longitude": -0.7128452841187813,
        "latitude": 51.619563210316805,
        "localSiteUrl": "https://www.tetrapak.com/uk"
      }
    ]
  },
  "USA": {
    "longitude": -95.712891,
    "latitude": 37.09024,
    "offices": [
      {
        "name": "Tetra Pak Cheese and Powder Systems Inc.",
        "address": "960 Broadway Avenue, Suite 5027\nBoise, ID  83706",
        "phoneNumber": "",
        "fax": "",
        "longitude": -116.19220500000002,
        "latitude": 43.601779,
        "localSiteUrl": "https://www.tetrapak.com/us"
      },
      {
        "name": "Tetra Pak Cheese and Powder Systems Inc.  ",
        "address": "1444 West Main Street, Suite C\nRipon, CA 95366",
        "phoneNumber": "",
        "fax": "",
        "longitude": -121.13059177242361,
        "latitude": 37.7406255085469,
        "localSiteUrl": "https://www.tetrapak.com/us"
      },
      {
        "name": "Tetra Pak U.S. Holdings Inc.",
        "address": "3300 Airport Road\nDenton, TX  76207",
        "phoneNumber": "",
        "fax": "",
        "longitude": -97.179901,
        "latitude": 33.201701,
        "localSiteUrl": "https://www.tetrapak.com/us"
      },
      {
        "name": "Tetra Pak Cheese and Powder Systems Inc.",
        "address": "332 Division Street\nHull, IA  51239",
        "phoneNumber": "",
        "fax": "",
        "longitude": -96.13706901586914,
        "latitude": 43.181305835815046,
        "localSiteUrl": "https://www.tetrapak.com/us"
      },
      {
        "name": "Tetra Pak Cheese and Powder Systems Inc.  ",
        "address": "423 Arlington Avenue\nFond du Lac, WI  54935",
        "phoneNumber": "",
        "fax": "",
        "longitude": -88.46394956806952,
        "latitude": 43.764921746731126,
        "localSiteUrl": "https://www.tetrapak.com/us"
      },
      {
        "name": "Tetra Pak Materials",
        "address": "3300 Airport Road\nDenton, TX 76207",
        "phoneNumber": "",
        "fax": "",
        "longitude": -97.180031,
        "latitude": 33.201703,
        "localSiteUrl": "https://www.tetrapak.com/us"
      },
      {
        "name": "Tetra Pak Inc.",
        "address": "5677 Sockness Drive\nRockford, IL 61109",
        "phoneNumber": "Main Office: (815) 873-1222",
        "fax": "",
        "longitude": -89.00700298431033,
        "latitude": 42.22746465145705,
        "localSiteUrl": "https://www.tetrapak.com/us"
      },
      {
        "name": "Tetra Pak Materials",
        "address": "2200 East Malone Avenue\nSikeston, MO 63801",
        "phoneNumber": "+1 573 471 1441",
        "fax": "+1 573 471 9068",
        "longitude": -89.550267,
        "latitude": 36.887655,
        "localSiteUrl": "https://www.tetrapak.com/us"
      },
      {
        "name": "Novembal USA Inc.",
        "address": "3 Greek Lane\n08817 NJ, Edison",
        "phoneNumber": "+1 732 287 49 49",
        "fax": "+1 732 287 49 88",
        "longitude": -74.402475,
        "latitude": 40.534441,
        "localSiteUrl": ""
      },
      {
        "name": "Tetra Pak  Inc.",
        "address": "1160 North Dewey Avenue, #C\nUpland, CA  91786",
        "phoneNumber": "",
        "fax": "",
        "longitude": -117.6938249707768,
        "latitude": 34.10800990919754,
        "localSiteUrl": "https://www.tetrapak.com/us"
      },
      {
        "name": "Tetra Pak Inc.",
        "address": "1104 Industrial Avenue\nAlbion, MI 49224\n",
        "phoneNumber": "",
        "fax": "",
        "longitude": -84.77812770175235,
        "latitude": 42.25358104750737,
        "localSiteUrl": "https://www.tetrapak.com/us"
      },
      {
        "name": "Tetra Pak Cheese and Powder Systems Inc.  ",
        "address": "1141 Curry Road, #4\nClovis, NM 88101",
        "phoneNumber": "",
        "fax": "",
        "longitude": -103.2252140314856,
        "latitude": 34.31413813780586,
        "localSiteUrl": "https://www.tetrapak.com/us"
      },
      {
        "name": "Tetra Pak Materials",
        "address": "1616 West 31st Street\nVancouver, WA 98660",
        "phoneNumber": "+1 360 693 3664",
        "fax": "+1 360 690 1207",
        "longitude": -122.689162,
        "latitude": 45.643891,
        "localSiteUrl": "https://www.tetrapak.com/us"
      },
      {
        "name": "Filtration Engineering",
        "address": "12255 Ensign Avenue N\nChamplin, MN  55316",
        "phoneNumber": "",
        "fax": "",
        "longitude": -93.39599198071944,
        "latitude": 45.176329628036534,
        "localSiteUrl": "https://www.tetrapak.com/us"
      },
      {
        "name": "Tetra Pak Inc.",
        "address": "3300 Airport Road Denton, TX 76207",
        "phoneNumber": "+1 940 565 8800",
        "fax": "+1 940 565 8420",
        "longitude": -97.18002820000001,
        "latitude": 33.202079499999996,
        "localSiteUrl": "https://www.tetrapak.com/us"
      },
      {
        "name": "Tetra Pak Cheese and Powder Systems Inc.",
        "address": "801 Kingsley Street\nPO Box 10\nWinsted, MN 55395",
        "phoneNumber": "+1 320 485 4401",
        "fax": "+1 320 485 2666",
        "longitude": -94.04207110000002,
        "latitude": 44.9562229,
        "localSiteUrl": "https://www.tetrapak.com/us"
      },
      {
        "name": "Tetra Pak Inc.",
        "address": "3300 Airport Road\nDenton, TX 76207",
        "phoneNumber": "+1 940 565 8800",
        "fax": "+1 940 565 8420",
        "longitude": -97.18002820000001,
        "latitude": 33.202079499999996,
        "localSiteUrl": "https://www.tetrapak.com/us"
      },
      {
        "name": "Tetra Pak Inc.",
        "address": "600 Bunker Court\nVernon Hills, IL 60661",
        "phoneNumber": "+1 847 955 6000",
        "fax": "+1 847 955 6500",
        "longitude": -87.94958800000002,
        "latitude": 42.234812999999995,
        "localSiteUrl": "https://www.tetrapak.com/us"
      }
    ]
  },
  "Ukraine": {
    "longitude": 31.16558,
    "latitude": 48.379433,
    "offices": [
      {
        "name": "Tetra Pak LLC",
        "address": "Spaska str.30-A\n04070, Kyiv\nUkraine.",
        "phoneNumber": "+380 44 3542424",
        "fax": "",
        "longitude": 30.519815416060613,
        "latitude": 50.46854139394183,
        "localSiteUrl": "https://www.tetrapak.com/ru"
      }
    ]
  },
  "United Arab Emirates": {
    "longitude": 53.847818,
    "latitude": 23.424076,
    "offices": [
      {
        "name": "Dubai",
        "address": "S-10107 South Zone Jebel Ali Free Zone P.O. Box 61158 Dubai United Arab Emirates",
        "phoneNumber": "+971 4 803 68 00",
        "fax": "+971 4 803 67 00",
        "longitude": 55.093244,
        "latitude": 24.9625,
        "localSiteUrl": ""
      }
    ]
  },
  "Uzbekistan": {
    "longitude": 64.585262,
    "latitude": 41.377491,
    "offices": [
      {
        "name": "Representative office of CJSC \"Tetra Pak\", Uzbekistan ",
        "address": "75, Mustaqillik street, Tashkent, Uzbekistan, 100000",
        "phoneNumber": "+998 71 140 07 82 ",
        "fax": "+998 71 140 07 81",
        "longitude": 69.28128600000002,
        "latitude": 41.32059500000001,
        "localSiteUrl": ""
      }
    ]
  },
  "Venezuela": {
    "longitude": -66.58973,
    "latitude": 6.42375,
    "offices": [
      {
        "name": "Tetra Pak Ltda",
        "address": "Carrera 11A N 94-45 Piso 6, Edificio OXO Center, Bogotá, Cra. 11a #94, Bogotá, Colombia",
        "phoneNumber": "+57 1 628 3630",
        "fax": "",
        "longitude": -74.04744281188938,
        "latitude": 4.678081836423781,
        "localSiteUrl": "https://www.tetrapak.com/co"
      }
    ]
  },
  "Vietnam": {
    "longitude": 108.277199,
    "latitude": 14.058324,
    "offices": [
      {
        "name": "Hanoi Office",
        "address": "11/F, BIDV Building,\n194 Tran Quang Khai St.,\nHoan Kiem Dist.",
        "phoneNumber": "+84 4 2220 3456",
        "fax": "+84 4 2220 3458",
        "longitude": 105.85730171479085,
        "latitude": 21.029981954333547,
        "localSiteUrl": "https://www.tetrapak.com/vn"
      },
      {
        "name": "Tetra Pak Vietnam",
        "address": "Ho Chi Minh Office\n14/F, The Metropolitan Building\n235 Dong Khoi Street, District 1",
        "phoneNumber": "+84 8 38257100",
        "fax": "+84 8 38257101",
        "longitude": 106.70074301115714,
        "latitude": 10.777302603213707,
        "localSiteUrl": "https://www.tetrapak.com/vn"
      }
    ]
  },
  "West Africa": {
    "longitude": 13.1676404,
    "latitude": 55.6998089,
    "offices": [
      {
        "name": "Tetra Pak West Africa Ltd",
        "address": "No 2, IPM Avenue, Alausa, Ikeja, \nLagos, Nigeria.\n",
        "phoneNumber": "+234 1 448 2867",
        "fax": "+234 1 7912931",
        "longitude": 3.356083850949644,
        "latitude": 6.618666423861015,
        "localSiteUrl": "https://www.tetrapak.com/ng"
      }
    ]
  },
  "Yemen": {
    "longitude": 48.516388,
    "latitude": 15.552727,
    "offices": [
      {
        "name": "Yemen",
        "address": "Tetra Pak Masqat Street 21 P.O. Box 2237 Sana'a Republic of Yemen",
        "phoneNumber": "+967 1 241 300/489",
        "fax": "+967 1 263 025",
        "longitude": 44.19209703349508,
        "latitude": 15.32509097592843,
        "localSiteUrl": ""
      }
    ]
  }
}
